{
  "type": "FeatureCollection",
  "features": [
    {
      "type": "Feature",
      "geometry": {
        "type": "Point",
        "coordinates": [
          -8.949908889,
          53.23196083
        ]
      },
      "properties": {
        "name": "Maree (School)"
      }
    },
    {
      "type": "Feature",
      "geometry": {
        "type": "Point",
        "coordinates": [
          -8.949975,
          53.23175056
        ]
      },
      "properties": {
        "name": "Maree (Costcutter)"
      }
    },
    {
      "type": "Feature",
      "geometry": {
        "type": "Point",
        "coordinates": [
          -8.988889167,
          53.29107389
        ]
      },
      "properties": {
        "name": "Monivea Rd (Clayton Hotel)"
      }
    },
    {
      "type": "Feature",
      "geometry": {
        "type": "Point",
        "coordinates": [
          -9.034650556,
          53.30169583
        ]
      },
      "properties": {
        "name": "Lime Kiln (Opp Clada Group)"
      }
    },
    {
      "type": "Feature",
      "geometry": {
        "type": "Point",
        "coordinates": [
          -9.023833889,
          53.31292167
        ]
      },
      "properties": {
        "name": "Ballindooley Cross (Northbound)"
      }
    },
    {
      "type": "Feature",
      "geometry": {
        "type": "Point",
        "coordinates": [
          -9.019348611,
          53.34219694
        ]
      },
      "properties": {
        "name": "Curramore Bridge (Northbound)"
      }
    },
    {
      "type": "Feature",
      "geometry": {
        "type": "Point",
        "coordinates": [
          -9.01635,
          53.37406167
        ]
      },
      "properties": {
        "name": "Clonboo (Cunniffes Bar)"
      }
    },
    {
      "type": "Feature",
      "geometry": {
        "type": "Point",
        "coordinates": [
          -9.012691944,
          53.28953861
        ]
      },
      "properties": {
        "name": "Ballybane Ind Est (Entrance)"
      }
    },
    {
      "type": "Feature",
      "geometry": {
        "type": "Point",
        "coordinates": [
          -9.054770833,
          53.27040611
        ]
      },
      "properties": {
        "name": "Spanish Parade (Spanish Arch)"
      }
    },
    {
      "type": "Feature",
      "geometry": {
        "type": "Point",
        "coordinates": [
          -9.058340833,
          53.26823583
        ]
      },
      "properties": {
        "name": "Fr Griffin Rd (Opp Fr Griffin Park)"
      }
    },
    {
      "type": "Feature",
      "geometry": {
        "type": "Point",
        "coordinates": [
          -9.06299,
          53.26788056
        ]
      },
      "properties": {
        "name": "Fr Griffin Ave (Opp Sea Road)"
      }
    },
    {
      "type": "Feature",
      "geometry": {
        "type": "Point",
        "coordinates": [
          -9.006615556,
          53.29187167
        ]
      },
      "properties": {
        "name": "Ballybane Ind Est.(Hewlett Packard)"
      }
    },
    {
      "type": "Feature",
      "geometry": {
        "type": "Point",
        "coordinates": [
          -9.066085,
          53.26820528
        ]
      },
      "properties": {
        "name": "Salthill Rd Lwr (Lios Ealtan)"
      }
    },
    {
      "type": "Feature",
      "geometry": {
        "type": "Point",
        "coordinates": [
          -9.069158056,
          53.26683111
        ]
      },
      "properties": {
        "name": "Salthill Rd Lwr (St Josephs)"
      }
    },
    {
      "type": "Feature",
      "geometry": {
        "type": "Point",
        "coordinates": [
          -9.07225,
          53.26495056
        ]
      },
      "properties": {
        "name": "Salthill Rd Lwr (Opp Devon Park)"
      }
    },
    {
      "type": "Feature",
      "geometry": {
        "type": "Point",
        "coordinates": [
          -9.07279,
          53.26258056
        ]
      },
      "properties": {
        "name": "Salthill Rd Lwr (Opp Warwick Hotel)"
      }
    },
    {
      "type": "Feature",
      "geometry": {
        "type": "Point",
        "coordinates": [
          -9.07509,
          53.26082083
        ]
      },
      "properties": {
        "name": "Upper Salthill Rd (Canton Kitchen)"
      }
    },
    {
      "type": "Feature",
      "geometry": {
        "type": "Point",
        "coordinates": [
          -9.079,
          53.25830083
        ]
      },
      "properties": {
        "name": "Upper Salthill Rd (Opp Western House)"
      }
    },
    {
      "type": "Feature",
      "geometry": {
        "type": "Point",
        "coordinates": [
          -9.08001,
          53.25996056
        ]
      },
      "properties": {
        "name": "Dalysfort Rd (Top of Hill)"
      }
    },
    {
      "type": "Feature",
      "geometry": {
        "type": "Point",
        "coordinates": [
          -9.08,
          53.26172083
        ]
      },
      "properties": {
        "name": "Dalysfort Rd (Hollands Shop)"
      }
    },
    {
      "type": "Feature",
      "geometry": {
        "type": "Point",
        "coordinates": [
          -9.08018,
          53.26423083
        ]
      },
      "properties": {
        "name": "Dalysfort Rd (Dr Mannix Rd Jctn)"
      }
    },
    {
      "type": "Feature",
      "geometry": {
        "type": "Point",
        "coordinates": [
          -9.08717,
          53.26368
        ]
      },
      "properties": {
        "name": "Dr Mannix Rd (GAA Pitch)"
      }
    },
    {
      "type": "Feature",
      "geometry": {
        "type": "Point",
        "coordinates": [
          -9.08947,
          53.26270083
        ]
      },
      "properties": {
        "name": "Threadneedle Rd (Opp Tennis Courts)"
      }
    },
    {
      "type": "Feature",
      "geometry": {
        "type": "Point",
        "coordinates": [
          -9.08994,
          53.25749056
        ]
      },
      "properties": {
        "name": "Upper Salthill Rd (Diving Board)"
      }
    },
    {
      "type": "Feature",
      "geometry": {
        "type": "Point",
        "coordinates": [
          -9.0858,
          53.25794056
        ]
      },
      "properties": {
        "name": "Upper Salthill Rd (Salthill Hotel)"
      }
    },
    {
      "type": "Feature",
      "geometry": {
        "type": "Point",
        "coordinates": [
          -9.07883,
          53.25858083
        ]
      },
      "properties": {
        "name": "Upper Salthill Rd (Waterfront)"
      }
    },
    {
      "type": "Feature",
      "geometry": {
        "type": "Point",
        "coordinates": [
          -9.0748,
          53.26124056
        ]
      },
      "properties": {
        "name": "Upper Salthill Rd (Caesars Palace)"
      }
    },
    {
      "type": "Feature",
      "geometry": {
        "type": "Point",
        "coordinates": [
          -9.07248,
          53.26381083
        ]
      },
      "properties": {
        "name": "Salthill Rd Lwr (Opp Kelleghers Gar)"
      }
    },
    {
      "type": "Feature",
      "geometry": {
        "type": "Point",
        "coordinates": [
          -9.07228,
          53.26531056
        ]
      },
      "properties": {
        "name": "Salthill Rd Lwr (Devon Park)"
      }
    },
    {
      "type": "Feature",
      "geometry": {
        "type": "Point",
        "coordinates": [
          -9.068656111,
          53.26708722
        ]
      },
      "properties": {
        "name": "Salthill Rd Lwr (Feeneys Shop)"
      }
    },
    {
      "type": "Feature",
      "geometry": {
        "type": "Point",
        "coordinates": [
          -9.066108333,
          53.26830167
        ]
      },
      "properties": {
        "name": "Salthill Rd Lwr (Opp Lios Ealtan)"
      }
    },
    {
      "type": "Feature",
      "geometry": {
        "type": "Point",
        "coordinates": [
          -9.062171667,
          53.26754778
        ]
      },
      "properties": {
        "name": "Fr Griffin Ave (Montpellier Terrace)"
      }
    },
    {
      "type": "Feature",
      "geometry": {
        "type": "Point",
        "coordinates": [
          -9.0581,
          53.26858083
        ]
      },
      "properties": {
        "name": "Fr Griffin Rd (Fr Griffin Park)"
      }
    },
    {
      "type": "Feature",
      "geometry": {
        "type": "Point",
        "coordinates": [
          -9.08316,
          53.26444
        ]
      },
      "properties": {
        "name": "Dr Mannix Rd (Rockbarton Rd )"
      }
    },
    {
      "type": "Feature",
      "geometry": {
        "type": "Point",
        "coordinates": [
          -9.054,
          53.27035056
        ]
      },
      "properties": {
        "name": "Spanish Parade (Jurys Hotel)"
      }
    },
    {
      "type": "Feature",
      "geometry": {
        "type": "Point",
        "coordinates": [
          -9.048780833,
          53.27368361
        ]
      },
      "properties": {
        "name": "Eyre Square South (Stop No 9)"
      }
    },
    {
      "type": "Feature",
      "geometry": {
        "type": "Point",
        "coordinates": [
          -9.11275,
          53.26209056
        ]
      },
      "properties": {
        "name": "Shangort Rd (Cotters Shop)"
      }
    },
    {
      "type": "Feature",
      "geometry": {
        "type": "Point",
        "coordinates": [
          -9.11617,
          53.26264056
        ]
      },
      "properties": {
        "name": "Shangort Rd (Church)"
      }
    },
    {
      "type": "Feature",
      "geometry": {
        "type": "Point",
        "coordinates": [
          -9.11757,
          53.26067056
        ]
      },
      "properties": {
        "name": "Ballymoneen Rd (Barna Rd Jctn)"
      }
    },
    {
      "type": "Feature",
      "geometry": {
        "type": "Point",
        "coordinates": [
          -9.10932,
          53.26087083
        ]
      },
      "properties": {
        "name": "Barna Road (Knocknacarra Cross)"
      }
    },
    {
      "type": "Feature",
      "geometry": {
        "type": "Point",
        "coordinates": [
          -9.10369,
          53.25856083
        ]
      },
      "properties": {
        "name": "Knocknacarra (Topaz Filling Stat)"
      }
    },
    {
      "type": "Feature",
      "geometry": {
        "type": "Point",
        "coordinates": [
          -9.10201,
          53.25958083
        ]
      },
      "properties": {
        "name": "Knocknacarra Rd (Burren View Hts)"
      }
    },
    {
      "type": "Feature",
      "geometry": {
        "type": "Point",
        "coordinates": [
          -9.10083,
          53.26198083
        ]
      },
      "properties": {
        "name": "Knocknacarra Rd (Opp Woodlawn)"
      }
    },
    {
      "type": "Feature",
      "geometry": {
        "type": "Point",
        "coordinates": [
          -9.10051,
          53.26458083
        ]
      },
      "properties": {
        "name": "Kingston Rd (Kingston Gardens)"
      }
    },
    {
      "type": "Feature",
      "geometry": {
        "type": "Point",
        "coordinates": [
          -9.093208889,
          53.26671333
        ]
      },
      "properties": {
        "name": "Kingston Rd (Manor Drive)"
      }
    },
    {
      "type": "Feature",
      "geometry": {
        "type": "Point",
        "coordinates": [
          -9.086913056,
          53.26725722
        ]
      },
      "properties": {
        "name": "Taylors Hill Rd (Threadneedle Junct)"
      }
    },
    {
      "type": "Feature",
      "geometry": {
        "type": "Point",
        "coordinates": [
          -9.083210278,
          53.26821944
        ]
      },
      "properties": {
        "name": "Taylors Hill Rd (Opp Ardmore)"
      }
    },
    {
      "type": "Feature",
      "geometry": {
        "type": "Point",
        "coordinates": [
          -9.077662778,
          53.26917583
        ]
      },
      "properties": {
        "name": "Taylors Hill Rd (Highfield Park)"
      }
    },
    {
      "type": "Feature",
      "geometry": {
        "type": "Point",
        "coordinates": [
          -9.072103889,
          53.26883417
        ]
      },
      "properties": {
        "name": "Taylors Hill Rd (Opp St Annes)"
      }
    },
    {
      "type": "Feature",
      "geometry": {
        "type": "Point",
        "coordinates": [
          -9.07178,
          53.27046056
        ]
      },
      "properties": {
        "name": "Maunsells Rd (Maunsells Rd Junc)"
      }
    },
    {
      "type": "Feature",
      "geometry": {
        "type": "Point",
        "coordinates": [
          -9.07201,
          53.27303056
        ]
      },
      "properties": {
        "name": "Maunsells Rd (Higgins DIY)"
      }
    },
    {
      "type": "Feature",
      "geometry": {
        "type": "Point",
        "coordinates": [
          -9.070668889,
          53.27353472
        ]
      },
      "properties": {
        "name": "Colmcille Rd (Scoil Bride)"
      }
    },
    {
      "type": "Feature",
      "geometry": {
        "type": "Point",
        "coordinates": [
          -9.07095,
          53.27540083
        ]
      },
      "properties": {
        "name": "Colmcille Rd (Opp Community Centre)"
      }
    },
    {
      "type": "Feature",
      "geometry": {
        "type": "Point",
        "coordinates": [
          -9.06763,
          53.27499083
        ]
      },
      "properties": {
        "name": "Costello Rd (Opp McDara Rd)"
      }
    },
    {
      "type": "Feature",
      "geometry": {
        "type": "Point",
        "coordinates": [
          -9.06425,
          53.27437083
        ]
      },
      "properties": {
        "name": "Costello Rd (HSE Clinic)"
      }
    },
    {
      "type": "Feature",
      "geometry": {
        "type": "Point",
        "coordinates": [
          -9.063535833,
          53.27606944
        ]
      },
      "properties": {
        "name": "Newcastle Rd (University Hospital)"
      }
    },
    {
      "type": "Feature",
      "geometry": {
        "type": "Point",
        "coordinates": [
          -9.06194,
          53.276655
        ]
      },
      "properties": {
        "name": "University Rd (NUIG Main Gate)"
      }
    },
    {
      "type": "Feature",
      "geometry": {
        "type": "Point",
        "coordinates": [
          -9.056933889,
          53.27549
        ]
      },
      "properties": {
        "name": "University Rd (Cathedral)"
      }
    },
    {
      "type": "Feature",
      "geometry": {
        "type": "Point",
        "coordinates": [
          -9.053691944,
          53.27526778
        ]
      },
      "properties": {
        "name": "Francis St (Opp Abbey Church)"
      }
    },
    {
      "type": "Feature",
      "geometry": {
        "type": "Point",
        "coordinates": [
          -9.04961,
          53.27517083
        ]
      },
      "properties": {
        "name": "Eyre Square North (Stop No 1)"
      }
    },
    {
      "type": "Feature",
      "geometry": {
        "type": "Point",
        "coordinates": [
          -9.046716389,
          53.27742528
        ]
      },
      "properties": {
        "name": "Prospect Hill (Fahys Pub)"
      }
    },
    {
      "type": "Feature",
      "geometry": {
        "type": "Point",
        "coordinates": [
          -9.045123889,
          53.27861028
        ]
      },
      "properties": {
        "name": "Bohermore (Opp Tonerys Pub)"
      }
    },
    {
      "type": "Feature",
      "geometry": {
        "type": "Point",
        "coordinates": [
          -9.042521111,
          53.28037306
        ]
      },
      "properties": {
        "name": "Bohermore (Liam Mellows Tce)"
      }
    },
    {
      "type": "Feature",
      "geometry": {
        "type": "Point",
        "coordinates": [
          -9.038574444,
          53.28202444
        ]
      },
      "properties": {
        "name": "Bohermore (Spar Filling Station)"
      }
    },
    {
      "type": "Feature",
      "geometry": {
        "type": "Point",
        "coordinates": [
          -9.031852222,
          53.28115278
        ]
      },
      "properties": {
        "name": "Dublin Rd (G Hotel)"
      }
    },
    {
      "type": "Feature",
      "geometry": {
        "type": "Point",
        "coordinates": [
          -9.024801667,
          53.27981972
        ]
      },
      "properties": {
        "name": "Dublin Rd (Opp Renmore Park)"
      }
    },
    {
      "type": "Feature",
      "geometry": {
        "type": "Point",
        "coordinates": [
          -9.021816389,
          53.27834806
        ]
      },
      "properties": {
        "name": "Renmore Rd (Bon Secours Hosp)"
      }
    },
    {
      "type": "Feature",
      "geometry": {
        "type": "Point",
        "coordinates": [
          -9.02381,
          53.27683056
        ]
      },
      "properties": {
        "name": "Renmore Rd (Opp Molloys Centra)"
      }
    },
    {
      "type": "Feature",
      "geometry": {
        "type": "Point",
        "coordinates": [
          -9.02616,
          53.27541083
        ]
      },
      "properties": {
        "name": "Renmore Rd (Dun Na Mara)"
      }
    },
    {
      "type": "Feature",
      "geometry": {
        "type": "Point",
        "coordinates": [
          -9.02851,
          53.27361056
        ]
      },
      "properties": {
        "name": "Renmore Rd (Opp Army Barracks)"
      }
    },
    {
      "type": "Feature",
      "geometry": {
        "type": "Point",
        "coordinates": [
          -9.02151,
          53.27241056
        ]
      },
      "properties": {
        "name": "Hawthorne Drive (Blackthorn Pk)"
      }
    },
    {
      "type": "Feature",
      "geometry": {
        "type": "Point",
        "coordinates": [
          -9.01883,
          53.27307083
        ]
      },
      "properties": {
        "name": "Hawthorn Drive (Rowan Ave)"
      }
    },
    {
      "type": "Feature",
      "geometry": {
        "type": "Point",
        "coordinates": [
          -9.01607,
          53.27295056
        ]
      },
      "properties": {
        "name": "Fuschia Drive (Larchfield Ave)"
      }
    },
    {
      "type": "Feature",
      "geometry": {
        "type": "Point",
        "coordinates": [
          -9.014609444,
          53.27422139
        ]
      },
      "properties": {
        "name": "Ballyloughane Rd (Op Murrough Ave Jct)"
      }
    },
    {
      "type": "Feature",
      "geometry": {
        "type": "Point",
        "coordinates": [
          -9.01362,
          53.27691083
        ]
      },
      "properties": {
        "name": "Ballyloughane Rd (Dairies)"
      }
    },
    {
      "type": "Feature",
      "geometry": {
        "type": "Point",
        "coordinates": [
          -9.003437222,
          53.27616694
        ]
      },
      "properties": {
        "name": "Dublin Rd (Merlin Park Gate)"
      }
    },
    {
      "type": "Feature",
      "geometry": {
        "type": "Point",
        "coordinates": [
          -9.009975,
          53.27719556
        ]
      },
      "properties": {
        "name": "Dublin Rd (GMIT)"
      }
    },
    {
      "type": "Feature",
      "geometry": {
        "type": "Point",
        "coordinates": [
          -8.994141111,
          53.27723306
        ]
      },
      "properties": {
        "name": "Merlin Park Terminus (Merlin Church)"
      }
    },
    {
      "type": "Feature",
      "geometry": {
        "type": "Point",
        "coordinates": [
          -9.005061944,
          53.27653944
        ]
      },
      "properties": {
        "name": "Dublin Rd (Opp Woodhaven)"
      }
    },
    {
      "type": "Feature",
      "geometry": {
        "type": "Point",
        "coordinates": [
          -9.01056,
          53.27717083
        ]
      },
      "properties": {
        "name": "Dublin Rd (Opp GMIT)"
      }
    },
    {
      "type": "Feature",
      "geometry": {
        "type": "Point",
        "coordinates": [
          -9.01346,
          53.27674056
        ]
      },
      "properties": {
        "name": "Ballyloughane Rd (Opp Dairies)"
      }
    },
    {
      "type": "Feature",
      "geometry": {
        "type": "Point",
        "coordinates": [
          -9.014575278,
          53.27405917
        ]
      },
      "properties": {
        "name": "Ballyloughane Rd (Murrough Ave Jct)"
      }
    },
    {
      "type": "Feature",
      "geometry": {
        "type": "Point",
        "coordinates": [
          -9.01622,
          53.27293056
        ]
      },
      "properties": {
        "name": "Fuschia Drive (Opp Larchfield Ave)"
      }
    },
    {
      "type": "Feature",
      "geometry": {
        "type": "Point",
        "coordinates": [
          -9.01864,
          53.27287056
        ]
      },
      "properties": {
        "name": "Hawthorne Drive (Opp Rowan Ave)"
      }
    },
    {
      "type": "Feature",
      "geometry": {
        "type": "Point",
        "coordinates": [
          -9.02131,
          53.27229056
        ]
      },
      "properties": {
        "name": "Hawthorne Drive (Opp Blackthorn Pk)"
      }
    },
    {
      "type": "Feature",
      "geometry": {
        "type": "Point",
        "coordinates": [
          -9.0236,
          53.27247056
        ]
      },
      "properties": {
        "name": "Hawthorne Drive (Arbutus Ave Jctn)"
      }
    },
    {
      "type": "Feature",
      "geometry": {
        "type": "Point",
        "coordinates": [
          -9.028759722,
          53.2736125
        ]
      },
      "properties": {
        "name": "Renmore Rd (Army Barracks)"
      }
    },
    {
      "type": "Feature",
      "geometry": {
        "type": "Point",
        "coordinates": [
          -9.02607,
          53.27557083
        ]
      },
      "properties": {
        "name": "Renmore Rd (Opp Dun Na Mara)"
      }
    },
    {
      "type": "Feature",
      "geometry": {
        "type": "Point",
        "coordinates": [
          -9.02381,
          53.27692083
        ]
      },
      "properties": {
        "name": "Renmore Rd (Molloys Centra)"
      }
    },
    {
      "type": "Feature",
      "geometry": {
        "type": "Point",
        "coordinates": [
          -9.02151,
          53.27864056
        ]
      },
      "properties": {
        "name": "Renmore Rd (Duggans Shop)"
      }
    },
    {
      "type": "Feature",
      "geometry": {
        "type": "Point",
        "coordinates": [
          -9.026643889,
          53.28021694
        ]
      },
      "properties": {
        "name": "Dublin Rd (Woodlands)"
      }
    },
    {
      "type": "Feature",
      "geometry": {
        "type": "Point",
        "coordinates": [
          -9.032933611,
          53.28173667
        ]
      },
      "properties": {
        "name": "Dublin Rd (Opp G Hotel)"
      }
    },
    {
      "type": "Feature",
      "geometry": {
        "type": "Point",
        "coordinates": [
          -9.038934722,
          53.28186389
        ]
      },
      "properties": {
        "name": "Bohermore (New Cemetary)"
      }
    },
    {
      "type": "Feature",
      "geometry": {
        "type": "Point",
        "coordinates": [
          -9.041413889,
          53.28096778
        ]
      },
      "properties": {
        "name": "Bohermore (Connolly Terrace)"
      }
    },
    {
      "type": "Feature",
      "geometry": {
        "type": "Point",
        "coordinates": [
          -9.04446,
          53.27901056
        ]
      },
      "properties": {
        "name": "Bohermore (Tonerys Bar)"
      }
    },
    {
      "type": "Feature",
      "geometry": {
        "type": "Point",
        "coordinates": [
          -9.04907,
          53.27490083
        ]
      },
      "properties": {
        "name": "Eyre Square East (Stop No 6)"
      }
    },
    {
      "type": "Feature",
      "geometry": {
        "type": "Point",
        "coordinates": [
          -9.053646944,
          53.27521389
        ]
      },
      "properties": {
        "name": "Francis Street (Abbey Church)"
      }
    },
    {
      "type": "Feature",
      "geometry": {
        "type": "Point",
        "coordinates": [
          -9.061162778,
          53.27645
        ]
      },
      "properties": {
        "name": "University Rd (Opp NUIG Main Gate)"
      }
    },
    {
      "type": "Feature",
      "geometry": {
        "type": "Point",
        "coordinates": [
          -9.063556111,
          53.27648139
        ]
      },
      "properties": {
        "name": "Newcastle Rd (Opp University Hospital)"
      }
    },
    {
      "type": "Feature",
      "geometry": {
        "type": "Point",
        "coordinates": [
          -9.0654,
          53.27431056
        ]
      },
      "properties": {
        "name": "Costello Rd (Opp HSE Clinic)"
      }
    },
    {
      "type": "Feature",
      "geometry": {
        "type": "Point",
        "coordinates": [
          -9.06782,
          53.27510083
        ]
      },
      "properties": {
        "name": "Costello Rd (McDara Rd Junction)"
      }
    },
    {
      "type": "Feature",
      "geometry": {
        "type": "Point",
        "coordinates": [
          -9.0708,
          53.27538056
        ]
      },
      "properties": {
        "name": "Colmcille Rd (Community Centre)"
      }
    },
    {
      "type": "Feature",
      "geometry": {
        "type": "Point",
        "coordinates": [
          -9.07051,
          53.27311056
        ]
      },
      "properties": {
        "name": "Colmcille Rd (Opp Scoil Bride)"
      }
    },
    {
      "type": "Feature",
      "geometry": {
        "type": "Point",
        "coordinates": [
          -9.07294,
          53.27240083
        ]
      },
      "properties": {
        "name": "Maunsells Rd (Opp Higgins DIY)"
      }
    },
    {
      "type": "Feature",
      "geometry": {
        "type": "Point",
        "coordinates": [
          -9.0718175,
          53.26880472
        ]
      },
      "properties": {
        "name": "Taylors Hill (St Annes)"
      }
    },
    {
      "type": "Feature",
      "geometry": {
        "type": "Point",
        "coordinates": [
          -9.07739,
          53.26896056
        ]
      },
      "properties": {
        "name": "Taylors Hill (Dominican Convent)"
      }
    },
    {
      "type": "Feature",
      "geometry": {
        "type": "Point",
        "coordinates": [
          -9.083332778,
          53.26815278
        ]
      },
      "properties": {
        "name": "Taylors Hill (Ardmore)"
      }
    },
    {
      "type": "Feature",
      "geometry": {
        "type": "Point",
        "coordinates": [
          -9.08967,
          53.26679056
        ]
      },
      "properties": {
        "name": "Taylors Hill (Colaiste Einde)"
      }
    },
    {
      "type": "Feature",
      "geometry": {
        "type": "Point",
        "coordinates": [
          -9.094142778,
          53.26643222
        ]
      },
      "properties": {
        "name": "Kingston Rd (Opp Manor Drive)"
      }
    },
    {
      "type": "Feature",
      "geometry": {
        "type": "Point",
        "coordinates": [
          -9.0998,
          53.26482056
        ]
      },
      "properties": {
        "name": "Kingston Rd (Opp Kingston Gardens)"
      }
    },
    {
      "type": "Feature",
      "geometry": {
        "type": "Point",
        "coordinates": [
          -9.104655278,
          53.263405
        ]
      },
      "properties": {
        "name": "Shangort Rd (Joyces Supermarket)"
      }
    },
    {
      "type": "Feature",
      "geometry": {
        "type": "Point",
        "coordinates": [
          -9.07178,
          53.27046056
        ]
      },
      "properties": {
        "name": "Maunsells Rd (Opp Maunsells Rd Jct)"
      }
    },
    {
      "type": "Feature",
      "geometry": {
        "type": "Point",
        "coordinates": [
          -9.0582,
          53.27580083
        ]
      },
      "properties": {
        "name": "University Rd (Opp Cathedral)"
      }
    },
    {
      "type": "Feature",
      "geometry": {
        "type": "Point",
        "coordinates": [
          -9.047243611,
          53.27685583
        ]
      },
      "properties": {
        "name": "Prospect Hill (Andys Haircare)"
      }
    },
    {
      "type": "Feature",
      "geometry": {
        "type": "Point",
        "coordinates": [
          -9.0485725,
          53.27459972
        ]
      },
      "properties": {
        "name": "Eyre Square East (Stop No 7)"
      }
    },
    {
      "type": "Feature",
      "geometry": {
        "type": "Point",
        "coordinates": [
          -9.04678,
          53.27624056
        ]
      },
      "properties": {
        "name": "Br Brendain Ui Either (Go Bus Office)"
      }
    },
    {
      "type": "Feature",
      "geometry": {
        "type": "Point",
        "coordinates": [
          -9.041798611,
          53.276235
        ]
      },
      "properties": {
        "name": "College Rd Galway (City Hall)"
      }
    },
    {
      "type": "Feature",
      "geometry": {
        "type": "Point",
        "coordinates": [
          -9.037631944,
          53.27921389
        ]
      },
      "properties": {
        "name": "College Rd Galway (Sportsground)"
      }
    },
    {
      "type": "Feature",
      "geometry": {
        "type": "Point",
        "coordinates": [
          -9.03653,
          53.27993083
        ]
      },
      "properties": {
        "name": "College Rd Galway (Loyola Park)"
      }
    },
    {
      "type": "Feature",
      "geometry": {
        "type": "Point",
        "coordinates": [
          -9.02772,
          53.28393056
        ]
      },
      "properties": {
        "name": "Monivea Rd (Opp Wellpark Est)"
      }
    },
    {
      "type": "Feature",
      "geometry": {
        "type": "Point",
        "coordinates": [
          -9.022011667,
          53.28662056
        ]
      },
      "properties": {
        "name": "Monivea Rd (Crown Plaza)"
      }
    },
    {
      "type": "Feature",
      "geometry": {
        "type": "Point",
        "coordinates": [
          -9.015329167,
          53.28894222
        ]
      },
      "properties": {
        "name": "Monivea Rd (Opp Monivea Park)"
      }
    },
    {
      "type": "Feature",
      "geometry": {
        "type": "Point",
        "coordinates": [
          -9.011763333,
          53.28634
        ]
      },
      "properties": {
        "name": "Ballybane Rd (Opp Shopping Centre)"
      }
    },
    {
      "type": "Feature",
      "geometry": {
        "type": "Point",
        "coordinates": [
          -9.01032,
          53.28286278
        ]
      },
      "properties": {
        "name": "Ballybane Rd (Opp Ard Aobhinn Drive)"
      }
    },
    {
      "type": "Feature",
      "geometry": {
        "type": "Point",
        "coordinates": [
          -9.006283889,
          53.28125028
        ]
      },
      "properties": {
        "name": "Castlepark Rd (Opp John Paul Centre)"
      }
    },
    {
      "type": "Feature",
      "geometry": {
        "type": "Point",
        "coordinates": [
          -9.0036,
          53.28275083
        ]
      },
      "properties": {
        "name": "Castlepark Rd (Opp Community Centre)"
      }
    },
    {
      "type": "Feature",
      "geometry": {
        "type": "Point",
        "coordinates": [
          -9.0022,
          53.28595056
        ]
      },
      "properties": {
        "name": "Castlepark Rd (Opp Gortcam)"
      }
    },
    {
      "type": "Feature",
      "geometry": {
        "type": "Point",
        "coordinates": [
          -9.00374,
          53.28729056
        ]
      },
      "properties": {
        "name": "Castlepark Rd (Opp Glenavon Drive)"
      }
    },
    {
      "type": "Feature",
      "geometry": {
        "type": "Point",
        "coordinates": [
          -9.002213611,
          53.28867472
        ]
      },
      "properties": {
        "name": "Monivea Rd (Opp Cottages)"
      }
    },
    {
      "type": "Feature",
      "geometry": {
        "type": "Point",
        "coordinates": [
          -8.99836,
          53.28976083
        ]
      },
      "properties": {
        "name": "Monivea Rd (Opp Ballybrit Heights)"
      }
    },
    {
      "type": "Feature",
      "geometry": {
        "type": "Point",
        "coordinates": [
          -8.984258056,
          53.29343861
        ]
      },
      "properties": {
        "name": "Parkmore Rd (Western Motors Entr)"
      }
    },
    {
      "type": "Feature",
      "geometry": {
        "type": "Point",
        "coordinates": [
          -8.986011667,
          53.29697917
        ]
      },
      "properties": {
        "name": "Parkmore Rd (Racecourse Side Gate)"
      }
    },
    {
      "type": "Feature",
      "geometry": {
        "type": "Point",
        "coordinates": [
          -8.986205,
          53.29733778
        ]
      },
      "properties": {
        "name": "Parkmore Rd (Opp Racecourse Side Gate)"
      }
    },
    {
      "type": "Feature",
      "geometry": {
        "type": "Point",
        "coordinates": [
          -8.984216944,
          53.29339083
        ]
      },
      "properties": {
        "name": "Parkmore Rd (Opp Western Motors Entr)"
      }
    },
    {
      "type": "Feature",
      "geometry": {
        "type": "Point",
        "coordinates": [
          -8.988741944,
          53.29109222
        ]
      },
      "properties": {
        "name": "Monivea Rd (Opp Clayton Hotel)"
      }
    },
    {
      "type": "Feature",
      "geometry": {
        "type": "Point",
        "coordinates": [
          -8.99499,
          53.29092056
        ]
      },
      "properties": {
        "name": "Monivea Rd (Paddocks)"
      }
    },
    {
      "type": "Feature",
      "geometry": {
        "type": "Point",
        "coordinates": [
          -8.99796,
          53.28985083
        ]
      },
      "properties": {
        "name": "Monivea Rd (Ballybrit Heights)"
      }
    },
    {
      "type": "Feature",
      "geometry": {
        "type": "Point",
        "coordinates": [
          -9.0022,
          53.28861056
        ]
      },
      "properties": {
        "name": "Monivea Rd (Cottages)"
      }
    },
    {
      "type": "Feature",
      "geometry": {
        "type": "Point",
        "coordinates": [
          -9.00431,
          53.28795083
        ]
      },
      "properties": {
        "name": "Castlepark Rd (Glenavon Drive)"
      }
    },
    {
      "type": "Feature",
      "geometry": {
        "type": "Point",
        "coordinates": [
          -9.00225,
          53.28622056
        ]
      },
      "properties": {
        "name": "Castlepark Rd (Gortcam)"
      }
    },
    {
      "type": "Feature",
      "geometry": {
        "type": "Point",
        "coordinates": [
          -9.00167,
          53.28358083
        ]
      },
      "properties": {
        "name": "Castlepark Rd (Sliabh Rua)"
      }
    },
    {
      "type": "Feature",
      "geometry": {
        "type": "Point",
        "coordinates": [
          -9.00493,
          53.28206056
        ]
      },
      "properties": {
        "name": "Castlepark Rd (Community Centre)"
      }
    },
    {
      "type": "Feature",
      "geometry": {
        "type": "Point",
        "coordinates": [
          -9.00724,
          53.28060056
        ]
      },
      "properties": {
        "name": "Ballybane Rd (John Paul Centre)"
      }
    },
    {
      "type": "Feature",
      "geometry": {
        "type": "Point",
        "coordinates": [
          -9.00992,
          53.28141083
        ]
      },
      "properties": {
        "name": "Ballybane Rd (St James Rd)"
      }
    },
    {
      "type": "Feature",
      "geometry": {
        "type": "Point",
        "coordinates": [
          -9.011078611,
          53.28509528
        ]
      },
      "properties": {
        "name": "Ballybane Rd (Shopping Centre)"
      }
    },
    {
      "type": "Feature",
      "geometry": {
        "type": "Point",
        "coordinates": [
          -9.0154875,
          53.28891056
        ]
      },
      "properties": {
        "name": "Monivea Rd (Monivea Park)"
      }
    },
    {
      "type": "Feature",
      "geometry": {
        "type": "Point",
        "coordinates": [
          -9.018146389,
          53.28601167
        ]
      },
      "properties": {
        "name": "McDonagh Ave (Old Mervue)"
      }
    },
    {
      "type": "Feature",
      "geometry": {
        "type": "Point",
        "coordinates": [
          -9.021915278,
          53.28664361
        ]
      },
      "properties": {
        "name": "Monivea Rd (Opp Crown Plaza)"
      }
    },
    {
      "type": "Feature",
      "geometry": {
        "type": "Point",
        "coordinates": [
          -9.026548056,
          53.28444611
        ]
      },
      "properties": {
        "name": "Monivea Rd (GMIT Cluam Mhuire)"
      }
    },
    {
      "type": "Feature",
      "geometry": {
        "type": "Point",
        "coordinates": [
          -9.031833889,
          53.28287917
        ]
      },
      "properties": {
        "name": "Monivea Rd (Wellpark Retail Est)"
      }
    },
    {
      "type": "Feature",
      "geometry": {
        "type": "Point",
        "coordinates": [
          -9.036173333,
          53.28010639
        ]
      },
      "properties": {
        "name": "College Rd Galway (Opp Loyola Pk)"
      }
    },
    {
      "type": "Feature",
      "geometry": {
        "type": "Point",
        "coordinates": [
          -9.038241667,
          53.27876722
        ]
      },
      "properties": {
        "name": "College Rd Galway (Opp Sportsground)"
      }
    },
    {
      "type": "Feature",
      "geometry": {
        "type": "Point",
        "coordinates": [
          -9.041532778,
          53.27642417
        ]
      },
      "properties": {
        "name": "College Rd Galway (Opp City Hall)"
      }
    },
    {
      "type": "Feature",
      "geometry": {
        "type": "Point",
        "coordinates": [
          -9.05248,
          53.27661056
        ]
      },
      "properties": {
        "name": "Headford Rd (Opp Woodquay)"
      }
    },
    {
      "type": "Feature",
      "geometry": {
        "type": "Point",
        "coordinates": [
          -9.04925,
          53.28048056
        ]
      },
      "properties": {
        "name": "Headford Rd (Galway Retail Park)"
      }
    },
    {
      "type": "Feature",
      "geometry": {
        "type": "Point",
        "coordinates": [
          -9.04648,
          53.28468083
        ]
      },
      "properties": {
        "name": "Headford Rd (Opp Dunnes Stores)"
      }
    },
    {
      "type": "Feature",
      "geometry": {
        "type": "Point",
        "coordinates": [
          -9.04816,
          53.28814083
        ]
      },
      "properties": {
        "name": "Coolough Rd (Opp Menlo Park Hotel)"
      }
    },
    {
      "type": "Feature",
      "geometry": {
        "type": "Point",
        "coordinates": [
          -9.04983,
          53.29251056
        ]
      },
      "properties": {
        "name": "Crestwood (Crestwood 48 to 62)"
      }
    },
    {
      "type": "Feature",
      "geometry": {
        "type": "Point",
        "coordinates": [
          -9.045996389,
          53.29166833
        ]
      },
      "properties": {
        "name": "Tirellan Heights (Ballinfoyle Rd)"
      }
    },
    {
      "type": "Feature",
      "geometry": {
        "type": "Point",
        "coordinates": [
          -9.0435,
          53.29126083
        ]
      },
      "properties": {
        "name": "Tirellan Hts (Tirellan Hts 344-385)"
      }
    },
    {
      "type": "Feature",
      "geometry": {
        "type": "Point",
        "coordinates": [
          -9.04222,
          53.29012056
        ]
      },
      "properties": {
        "name": "Tirellan Heights (Headford Rd Jctn)"
      }
    },
    {
      "type": "Feature",
      "geometry": {
        "type": "Point",
        "coordinates": [
          -9.04073,
          53.29081083
        ]
      },
      "properties": {
        "name": "Headford Rd (Church)"
      }
    },
    {
      "type": "Feature",
      "geometry": {
        "type": "Point",
        "coordinates": [
          -9.03843,
          53.29231056
        ]
      },
      "properties": {
        "name": "Headford Rd (Sceilig Ard)"
      }
    },
    {
      "type": "Feature",
      "geometry": {
        "type": "Point",
        "coordinates": [
          -9.034038611,
          53.29603111
        ]
      },
      "properties": {
        "name": "Bothair an Choiste (Op Baile Choiste)"
      }
    },
    {
      "type": "Feature",
      "geometry": {
        "type": "Point",
        "coordinates": [
          -9.030780556,
          53.29638889
        ]
      },
      "properties": {
        "name": "Bothair an Choiste (Murphys Centra)"
      }
    },
    {
      "type": "Feature",
      "geometry": {
        "type": "Point",
        "coordinates": [
          -9.02744,
          53.29735056
        ]
      },
      "properties": {
        "name": "Bothair an Choiste (Cluain Riocard)"
      }
    },
    {
      "type": "Feature",
      "geometry": {
        "type": "Point",
        "coordinates": [
          -9.024146111,
          53.29869
        ]
      },
      "properties": {
        "name": "Bothair an Choiste (Maigh Riocard)"
      }
    },
    {
      "type": "Feature",
      "geometry": {
        "type": "Point",
        "coordinates": [
          -9.0274,
          53.29721083
        ]
      },
      "properties": {
        "name": "Bothair an Choiste (Lochan)"
      }
    },
    {
      "type": "Feature",
      "geometry": {
        "type": "Point",
        "coordinates": [
          -9.03088,
          53.29634083
        ]
      },
      "properties": {
        "name": "Bothair an Choiste (Baile an Choiste 102"
      }
    },
    {
      "type": "Feature",
      "geometry": {
        "type": "Point",
        "coordinates": [
          -9.033691111,
          53.29600194
        ]
      },
      "properties": {
        "name": "Bothair an Choiste (Baile an Choiste 1 t"
      }
    },
    {
      "type": "Feature",
      "geometry": {
        "type": "Point",
        "coordinates": [
          -9.03804,
          53.29237056
        ]
      },
      "properties": {
        "name": "Headford Rd (Ballinfoyle Mews)"
      }
    },
    {
      "type": "Feature",
      "geometry": {
        "type": "Point",
        "coordinates": [
          -9.040566944,
          53.29072889
        ]
      },
      "properties": {
        "name": "Headford Rd (Brookedale)"
      }
    },
    {
      "type": "Feature",
      "geometry": {
        "type": "Point",
        "coordinates": [
          -9.045994444,
          53.28522333
        ]
      },
      "properties": {
        "name": "Headford Rd (Dunnes Stores)"
      }
    },
    {
      "type": "Feature",
      "geometry": {
        "type": "Point",
        "coordinates": [
          -9.04861,
          53.28106083
        ]
      },
      "properties": {
        "name": "Headford Rd (Galway Shopping Centre)"
      }
    },
    {
      "type": "Feature",
      "geometry": {
        "type": "Point",
        "coordinates": [
          -9.052389722,
          53.27663028
        ]
      },
      "properties": {
        "name": "Headford Rd (Woodquay)"
      }
    },
    {
      "type": "Feature",
      "geometry": {
        "type": "Point",
        "coordinates": [
          -9.04985,
          53.27507056
        ]
      },
      "properties": {
        "name": "Eyre Square North (Stop No 2)"
      }
    },
    {
      "type": "Feature",
      "geometry": {
        "type": "Point",
        "coordinates": [
          -9.020142222,
          53.27874083
        ]
      },
      "properties": {
        "name": "Dublin Rd (Glenina Heights)"
      }
    },
    {
      "type": "Feature",
      "geometry": {
        "type": "Point",
        "coordinates": [
          -9.014519444,
          53.27771139
        ]
      },
      "properties": {
        "name": "Dublin Rd (Opp Dawn Dairies)"
      }
    },
    {
      "type": "Feature",
      "geometry": {
        "type": "Point",
        "coordinates": [
          -8.997457222,
          53.27446056
        ]
      },
      "properties": {
        "name": "Dublin Rd (Opp Galway Crystal Jctn)"
      }
    },
    {
      "type": "Feature",
      "geometry": {
        "type": "Point",
        "coordinates": [
          -8.983898889,
          53.27544111
        ]
      },
      "properties": {
        "name": "Dublin Rd (Opp Coast Rd Jctn)"
      }
    },
    {
      "type": "Feature",
      "geometry": {
        "type": "Point",
        "coordinates": [
          -8.976295278,
          53.27757528
        ]
      },
      "properties": {
        "name": "Dublin Rd (Opp Castlegar Complex)"
      }
    },
    {
      "type": "Feature",
      "geometry": {
        "type": "Point",
        "coordinates": [
          -8.978699167,
          53.28201111
        ]
      },
      "properties": {
        "name": "Doughiska Rd (An Fiodan)"
      }
    },
    {
      "type": "Feature",
      "geometry": {
        "type": "Point",
        "coordinates": [
          -8.98068,
          53.28381083
        ]
      },
      "properties": {
        "name": "Doughiska Rd (Amber Hse Hotel)"
      }
    },
    {
      "type": "Feature",
      "geometry": {
        "type": "Point",
        "coordinates": [
          -8.982087778,
          53.28499556
        ]
      },
      "properties": {
        "name": "Doughiska Rd (Merlin Woods Prm Sch)"
      }
    },
    {
      "type": "Feature",
      "geometry": {
        "type": "Point",
        "coordinates": [
          -8.983524444,
          53.28630361
        ]
      },
      "properties": {
        "name": "Doughiska Rd (Nestors Centra)"
      }
    },
    {
      "type": "Feature",
      "geometry": {
        "type": "Point",
        "coordinates": [
          -8.98587,
          53.28825056
        ]
      },
      "properties": {
        "name": "Doughiska Rd (NCT Entrance)"
      }
    },
    {
      "type": "Feature",
      "geometry": {
        "type": "Point",
        "coordinates": [
          -8.98824,
          53.29036083
        ]
      },
      "properties": {
        "name": "Doughiska Rd (Op Brierhill Shop Cen)"
      }
    },
    {
      "type": "Feature",
      "geometry": {
        "type": "Point",
        "coordinates": [
          -8.98746,
          53.28970056
        ]
      },
      "properties": {
        "name": "Doughiska Rd (Brierhill Shop Centre)"
      }
    },
    {
      "type": "Feature",
      "geometry": {
        "type": "Point",
        "coordinates": [
          -8.983815,
          53.28653417
        ]
      },
      "properties": {
        "name": "Doughiska Rd (Opp Nestors Centra)"
      }
    },
    {
      "type": "Feature",
      "geometry": {
        "type": "Point",
        "coordinates": [
          -8.981981111,
          53.28496111
        ]
      },
      "properties": {
        "name": "Doughiska Rd (Opp Primary School)"
      }
    },
    {
      "type": "Feature",
      "geometry": {
        "type": "Point",
        "coordinates": [
          -8.97885,
          53.28217083
        ]
      },
      "properties": {
        "name": "Doughiska Rd (Opp An Fiodan)"
      }
    },
    {
      "type": "Feature",
      "geometry": {
        "type": "Point",
        "coordinates": [
          -8.97748,
          53.28097083
        ]
      },
      "properties": {
        "name": "Doughiska Rd (Castan)"
      }
    },
    {
      "type": "Feature",
      "geometry": {
        "type": "Point",
        "coordinates": [
          -8.976399722,
          53.27750556
        ]
      },
      "properties": {
        "name": "Dublin Rd (Castlegar Complex)"
      }
    },
    {
      "type": "Feature",
      "geometry": {
        "type": "Point",
        "coordinates": [
          -8.999441667,
          53.27498889
        ]
      },
      "properties": {
        "name": "Dublin Rd (Kingsvalley Hotel)"
      }
    },
    {
      "type": "Feature",
      "geometry": {
        "type": "Point",
        "coordinates": [
          -9.013956111,
          53.27761472
        ]
      },
      "properties": {
        "name": "Dublin Rd (Dawn Dairies)"
      }
    },
    {
      "type": "Feature",
      "geometry": {
        "type": "Point",
        "coordinates": [
          -9.019024444,
          53.27850056
        ]
      },
      "properties": {
        "name": "Dublin Rd (Opp Glenina Hgts)"
      }
    },
    {
      "type": "Feature",
      "geometry": {
        "type": "Point",
        "coordinates": [
          -9.046559167,
          53.27496972
        ]
      },
      "properties": {
        "name": "Forster St (Morgans Hotel)"
      }
    },
    {
      "type": "Feature",
      "geometry": {
        "type": "Point",
        "coordinates": [
          -9.049193889,
          53.27499139
        ]
      },
      "properties": {
        "name": "Eyre Square East (Stop No 5)"
      }
    },
    {
      "type": "Feature",
      "geometry": {
        "type": "Point",
        "coordinates": [
          -9.064914722,
          53.28146472
        ]
      },
      "properties": {
        "name": "Lower Newcastle (G & L Stores)"
      }
    },
    {
      "type": "Feature",
      "geometry": {
        "type": "Point",
        "coordinates": [
          -9.06608,
          53.28280056
        ]
      },
      "properties": {
        "name": "Lower Newcastle (Moyola Park Entr)"
      }
    },
    {
      "type": "Feature",
      "geometry": {
        "type": "Point",
        "coordinates": [
          -9.06891,
          53.28688083
        ]
      },
      "properties": {
        "name": "Lower Newcastle (Greenfields Entr)"
      }
    },
    {
      "type": "Feature",
      "geometry": {
        "type": "Point",
        "coordinates": [
          -9.074653056,
          53.28814806
        ]
      },
      "properties": {
        "name": "Thomas Hynes Rd (Clifton Pk)"
      }
    },
    {
      "type": "Feature",
      "geometry": {
        "type": "Point",
        "coordinates": [
          -9.073564444,
          53.28471417
        ]
      },
      "properties": {
        "name": "Thomas Hynes Rd (Fairlands Park)"
      }
    },
    {
      "type": "Feature",
      "geometry": {
        "type": "Point",
        "coordinates": [
          -9.072733056,
          53.28344667
        ]
      },
      "properties": {
        "name": "Thomas Hynes Rd (St Josephs School)"
      }
    },
    {
      "type": "Feature",
      "geometry": {
        "type": "Point",
        "coordinates": [
          -9.074276944,
          53.28147972
        ]
      },
      "properties": {
        "name": "Siobhain McKenna Rd (Corrib Pk)"
      }
    },
    {
      "type": "Feature",
      "geometry": {
        "type": "Point",
        "coordinates": [
          -9.077478333,
          53.27947639
        ]
      },
      "properties": {
        "name": "Siobhain McKenna Rd (Camillaun Pk)"
      }
    },
    {
      "type": "Feature",
      "geometry": {
        "type": "Point",
        "coordinates": [
          -9.048779444,
          53.27313611
        ]
      },
      "properties": {
        "name": "Merchants Rd (Kinlay House)"
      }
    },
    {
      "type": "Feature",
      "geometry": {
        "type": "Point",
        "coordinates": [
          -9.070655833,
          53.28064083
        ]
      },
      "properties": {
        "name": "Thomas Hynes Rd (Ardilaun Road)"
      }
    },
    {
      "type": "Feature",
      "geometry": {
        "type": "Point",
        "coordinates": [
          -9.070761944,
          53.28055278
        ]
      },
      "properties": {
        "name": "Thomas Hynes Rd (Opp Ardilaun Rd)"
      }
    },
    {
      "type": "Feature",
      "geometry": {
        "type": "Point",
        "coordinates": [
          -9.080505833,
          53.27695306
        ]
      },
      "properties": {
        "name": "Siobhain McKenna Rd (Westside Pitches)"
      }
    },
    {
      "type": "Feature",
      "geometry": {
        "type": "Point",
        "coordinates": [
          -9.082021389,
          53.27528333
        ]
      },
      "properties": {
        "name": "Circular Rd (Opp Currach Bui)"
      }
    },
    {
      "type": "Feature",
      "geometry": {
        "type": "Point",
        "coordinates": [
          -9.079290278,
          53.27443417
        ]
      },
      "properties": {
        "name": "Seamus Quirke Rd (Op Rahoon Rd Jctn)"
      }
    },
    {
      "type": "Feature",
      "geometry": {
        "type": "Point",
        "coordinates": [
          -9.0776,
          53.27615056
        ]
      },
      "properties": {
        "name": "Westside (Shopping Centre)"
      }
    },
    {
      "type": "Feature",
      "geometry": {
        "type": "Point",
        "coordinates": [
          -9.077745833,
          53.27919278
        ]
      },
      "properties": {
        "name": "Siobhain McKenna Rd (Gaelcarrig Pk)"
      }
    },
    {
      "type": "Feature",
      "geometry": {
        "type": "Point",
        "coordinates": [
          -9.074136389,
          53.28155111
        ]
      },
      "properties": {
        "name": "Siobhain McKenna Rd (Laurel Park)"
      }
    },
    {
      "type": "Feature",
      "geometry": {
        "type": "Point",
        "coordinates": [
          -9.072926667,
          53.28362639
        ]
      },
      "properties": {
        "name": "Thomas Hynes Rd (Opp St Josephs Sch)"
      }
    },
    {
      "type": "Feature",
      "geometry": {
        "type": "Point",
        "coordinates": [
          -9.07362,
          53.28461056
        ]
      },
      "properties": {
        "name": "Thomas Hynes Rd (Hazel Park)"
      }
    },
    {
      "type": "Feature",
      "geometry": {
        "type": "Point",
        "coordinates": [
          -9.07469,
          53.28851083
        ]
      },
      "properties": {
        "name": "Thomas Hynes Rd (Tudor Lawns)"
      }
    },
    {
      "type": "Feature",
      "geometry": {
        "type": "Point",
        "coordinates": [
          -9.069564167,
          53.28760444
        ]
      },
      "properties": {
        "name": "Lower Newcastle (Corrib Village)"
      }
    },
    {
      "type": "Feature",
      "geometry": {
        "type": "Point",
        "coordinates": [
          -9.064742222,
          53.28141056
        ]
      },
      "properties": {
        "name": "Lower Newcastle (AIB Bank)"
      }
    },
    {
      "type": "Feature",
      "geometry": {
        "type": "Point",
        "coordinates": [
          -9.048536389,
          53.27457417
        ]
      },
      "properties": {
        "name": "Eyre Square East (Stop No 8)"
      }
    },
    {
      "type": "Feature",
      "geometry": {
        "type": "Point",
        "coordinates": [
          -9.063274444,
          53.27890111
        ]
      },
      "properties": {
        "name": "Newcastle Rd Uppr (Opp NUIG West Gate)"
      }
    },
    {
      "type": "Feature",
      "geometry": {
        "type": "Point",
        "coordinates": [
          -9.0678075,
          53.28547444
        ]
      },
      "properties": {
        "name": "Lwr Newcastle (Opp St Francis Home)"
      }
    },
    {
      "type": "Feature",
      "geometry": {
        "type": "Point",
        "coordinates": [
          -9.067763889,
          53.28550444
        ]
      },
      "properties": {
        "name": "Lower Newcastle (St Francis Home)"
      }
    },
    {
      "type": "Feature",
      "geometry": {
        "type": "Point",
        "coordinates": [
          -9.063163056,
          53.27858028
        ]
      },
      "properties": {
        "name": "Newcastle Rd (NUIG West Gate)"
      }
    },
    {
      "type": "Feature",
      "geometry": {
        "type": "Point",
        "coordinates": [
          -9.0967,
          53.27176056
        ]
      },
      "properties": {
        "name": "Gort na Bro (B&Q Retail Park)"
      }
    },
    {
      "type": "Feature",
      "geometry": {
        "type": "Point",
        "coordinates": [
          -9.090046667,
          53.27022528
        ]
      },
      "properties": {
        "name": "Garrai de Brun (Op Garrai de Brun Ent)"
      }
    },
    {
      "type": "Feature",
      "geometry": {
        "type": "Point",
        "coordinates": [
          -9.08679,
          53.27096806
        ]
      },
      "properties": {
        "name": "Bishop O Donnell Rd (Opp Droim Chaoin)"
      }
    },
    {
      "type": "Feature",
      "geometry": {
        "type": "Point",
        "coordinates": [
          -9.084266111,
          53.27342389
        ]
      },
      "properties": {
        "name": "Seamus Quirke Rd (Rahoon Rd Junc)"
      }
    },
    {
      "type": "Feature",
      "geometry": {
        "type": "Point",
        "coordinates": [
          -9.079772778,
          53.27430028
        ]
      },
      "properties": {
        "name": "Seamus Quirke Rd (Circular Rd Junc)"
      }
    },
    {
      "type": "Feature",
      "geometry": {
        "type": "Point",
        "coordinates": [
          -9.075196111,
          53.27577
        ]
      },
      "properties": {
        "name": "Seamus Quirke Rd (Westside Shopp Cent)"
      }
    },
    {
      "type": "Feature",
      "geometry": {
        "type": "Point",
        "coordinates": [
          -9.071959722,
          53.27776583
        ]
      },
      "properties": {
        "name": "Seamus Quirke Rd (Corrib Park)"
      }
    },
    {
      "type": "Feature",
      "geometry": {
        "type": "Point",
        "coordinates": [
          -9.065115278,
          53.28011389
        ]
      },
      "properties": {
        "name": "Seamus Quirke Rd (Snipe Lawn)"
      }
    },
    {
      "type": "Feature",
      "geometry": {
        "type": "Point",
        "coordinates": [
          -9.031440556,
          53.28633472
        ]
      },
      "properties": {
        "name": "Tuam Rd (Riverside Estate)"
      }
    },
    {
      "type": "Feature",
      "geometry": {
        "type": "Point",
        "coordinates": [
          -9.027472222,
          53.2875925
        ]
      },
      "properties": {
        "name": "Tuam Rd (Opp Mervue Ind Est)"
      }
    },
    {
      "type": "Feature",
      "geometry": {
        "type": "Point",
        "coordinates": [
          -9.024428889,
          53.28840972
        ]
      },
      "properties": {
        "name": "Tuam Rd (Trappers Inn)"
      }
    },
    {
      "type": "Feature",
      "geometry": {
        "type": "Point",
        "coordinates": [
          -9.022930556,
          53.28560472
        ]
      },
      "properties": {
        "name": "Connolly Ave (Pearse Avenue)"
      }
    },
    {
      "type": "Feature",
      "geometry": {
        "type": "Point",
        "coordinates": [
          -9.01792,
          53.28376056
        ]
      },
      "properties": {
        "name": "Connolly Ave (Opp Fahys Field)"
      }
    },
    {
      "type": "Feature",
      "geometry": {
        "type": "Point",
        "coordinates": [
          -9.01076,
          53.28095056
        ]
      },
      "properties": {
        "name": "St James Rd (Opp Bayview Hgts)"
      }
    },
    {
      "type": "Feature",
      "geometry": {
        "type": "Point",
        "coordinates": [
          -9.01584,
          53.28139056
        ]
      },
      "properties": {
        "name": "St James Rd (HSE Clinic)"
      }
    },
    {
      "type": "Feature",
      "geometry": {
        "type": "Point",
        "coordinates": [
          -9.016635833,
          53.28177861
        ]
      },
      "properties": {
        "name": "Connolly Ave (Walter Macken Flats)"
      }
    },
    {
      "type": "Feature",
      "geometry": {
        "type": "Point",
        "coordinates": [
          -9.01799,
          53.28361083
        ]
      },
      "properties": {
        "name": "Connolly Ave (Fahys Field)"
      }
    },
    {
      "type": "Feature",
      "geometry": {
        "type": "Point",
        "coordinates": [
          -9.02279,
          53.28549056
        ]
      },
      "properties": {
        "name": "Connolly Ave (Opp Pearse Ave)"
      }
    },
    {
      "type": "Feature",
      "geometry": {
        "type": "Point",
        "coordinates": [
          -9.02351,
          53.28869083
        ]
      },
      "properties": {
        "name": "Tuam Rd (Opp Trappers Inn)"
      }
    },
    {
      "type": "Feature",
      "geometry": {
        "type": "Point",
        "coordinates": [
          -9.027406667,
          53.28758333
        ]
      },
      "properties": {
        "name": "Tuam Rd (Mervue Industrial Est)"
      }
    },
    {
      "type": "Feature",
      "geometry": {
        "type": "Point",
        "coordinates": [
          -9.031511944,
          53.2863075
        ]
      },
      "properties": {
        "name": "Tuam Rd (Opp Riverside Est)"
      }
    },
    {
      "type": "Feature",
      "geometry": {
        "type": "Point",
        "coordinates": [
          -9.064806111,
          53.28009083
        ]
      },
      "properties": {
        "name": "Seamus Quirke Rd (Opp Snipe Lawn)"
      }
    },
    {
      "type": "Feature",
      "geometry": {
        "type": "Point",
        "coordinates": [
          -9.070026944,
          53.27838361
        ]
      },
      "properties": {
        "name": "Seamus Quirke Rd (Arch Motors)"
      }
    },
    {
      "type": "Feature",
      "geometry": {
        "type": "Point",
        "coordinates": [
          -9.075276667,
          53.27560083
        ]
      },
      "properties": {
        "name": "Seamus Quirke Rd (Westside Retail Pk)"
      }
    },
    {
      "type": "Feature",
      "geometry": {
        "type": "Point",
        "coordinates": [
          -9.079290278,
          53.27443417
        ]
      },
      "properties": {
        "name": "Seamus Quirke Rd (ESB Sub Station)"
      }
    },
    {
      "type": "Feature",
      "geometry": {
        "type": "Point",
        "coordinates": [
          -9.0837025,
          53.27347083
        ]
      },
      "properties": {
        "name": "Bishop O Donn Rd (Op Rahoon Rd Jnc)"
      }
    },
    {
      "type": "Feature",
      "geometry": {
        "type": "Point",
        "coordinates": [
          -9.086656389,
          53.27086556
        ]
      },
      "properties": {
        "name": "Bishop O Donnell Rd (Droim Chaoin)"
      }
    },
    {
      "type": "Feature",
      "geometry": {
        "type": "Point",
        "coordinates": [
          -9.090128611,
          53.27022667
        ]
      },
      "properties": {
        "name": "Garrai De Brun (Garrai De Brun Ent)"
      }
    },
    {
      "type": "Feature",
      "geometry": {
        "type": "Point",
        "coordinates": [
          -8.929915833,
          53.26671056
        ]
      },
      "properties": {
        "name": "Oranmore Village (Op Calacanctius Col)"
      }
    },
    {
      "type": "Feature",
      "geometry": {
        "type": "Point",
        "coordinates": [
          -9.024613889,
          53.29862361
        ]
      },
      "properties": {
        "name": "Bothair an Choiste (Opp Maigh Riocard)"
      }
    },
    {
      "type": "Feature",
      "geometry": {
        "type": "Point",
        "coordinates": [
          -9.014701944,
          53.28133389
        ]
      },
      "properties": {
        "name": "St James Road (Mervue Church)"
      }
    },
    {
      "type": "Feature",
      "geometry": {
        "type": "Point",
        "coordinates": [
          -9.010560556,
          53.28099194
        ]
      },
      "properties": {
        "name": "St James Rd (Bayview Heights)"
      }
    },
    {
      "type": "Feature",
      "geometry": {
        "type": "Point",
        "coordinates": [
          -9.042981944,
          53.29012972
        ]
      },
      "properties": {
        "name": "Tirellan Heights (St Francis NS)"
      }
    },
    {
      "type": "Feature",
      "geometry": {
        "type": "Point",
        "coordinates": [
          -9.043751944,
          53.29138083
        ]
      },
      "properties": {
        "name": "Tirellan Heights Opp (344 to 385)"
      }
    },
    {
      "type": "Feature",
      "geometry": {
        "type": "Point",
        "coordinates": [
          -9.046268056,
          53.29154056
        ]
      },
      "properties": {
        "name": "Tirellan Heights (Ballinfoyle Road)"
      }
    },
    {
      "type": "Feature",
      "geometry": {
        "type": "Point",
        "coordinates": [
          -9.048656944,
          53.29219583
        ]
      },
      "properties": {
        "name": "Crestwood (Crestwood 47 to 33)"
      }
    },
    {
      "type": "Feature",
      "geometry": {
        "type": "Point",
        "coordinates": [
          -9.048651944,
          53.28848472
        ]
      },
      "properties": {
        "name": "Coolough Rd (Menlo Park Apartments)"
      }
    },
    {
      "type": "Feature",
      "geometry": {
        "type": "Point",
        "coordinates": [
          -8.93159,
          53.35632222
        ]
      },
      "properties": {
        "name": "Loughgeorge (Opp Garda Station)"
      }
    },
    {
      "type": "Feature",
      "geometry": {
        "type": "Point",
        "coordinates": [
          -8.943108056,
          53.34374306
        ]
      },
      "properties": {
        "name": "Claregalway (Opp Cois Chlair)"
      }
    },
    {
      "type": "Feature",
      "geometry": {
        "type": "Point",
        "coordinates": [
          -8.960144444,
          53.33255083
        ]
      },
      "properties": {
        "name": "Cregboy House (Westbound)"
      }
    },
    {
      "type": "Feature",
      "geometry": {
        "type": "Point",
        "coordinates": [
          -8.98611,
          53.3138225
        ]
      },
      "properties": {
        "name": "Castlegar (McHughs Pub)"
      }
    },
    {
      "type": "Feature",
      "geometry": {
        "type": "Point",
        "coordinates": [
          -8.984039722,
          53.29225528
        ]
      },
      "properties": {
        "name": "Donnellans Cross (Westbound)"
      }
    },
    {
      "type": "Feature",
      "geometry": {
        "type": "Point",
        "coordinates": [
          -8.99288,
          53.29106056
        ]
      },
      "properties": {
        "name": "Monivea Rd (Jctn Lios Caisil)"
      }
    },
    {
      "type": "Feature",
      "geometry": {
        "type": "Point",
        "coordinates": [
          -9.092023056,
          53.29545667
        ]
      },
      "properties": {
        "name": "Bushy Park (Church)"
      }
    },
    {
      "type": "Feature",
      "geometry": {
        "type": "Point",
        "coordinates": [
          -9.152091944,
          53.31614028
        ]
      },
      "properties": {
        "name": "Cloniffe Cross (Westbound)"
      }
    },
    {
      "type": "Feature",
      "geometry": {
        "type": "Point",
        "coordinates": [
          -8.933191667,
          53.30454611
        ]
      },
      "properties": {
        "name": "Carnmore Cross (Westbound)"
      }
    },
    {
      "type": "Feature",
      "geometry": {
        "type": "Point",
        "coordinates": [
          -8.933454167,
          53.30454111
        ]
      },
      "properties": {
        "name": "Carnmore Cross (Eastbound)"
      }
    },
    {
      "type": "Feature",
      "geometry": {
        "type": "Point",
        "coordinates": [
          -9.00806,
          53.29257056
        ]
      },
      "properties": {
        "name": "Ballybrit Ind Est (HP)"
      }
    },
    {
      "type": "Feature",
      "geometry": {
        "type": "Point",
        "coordinates": [
          -8.962088056,
          53.33161389
        ]
      },
      "properties": {
        "name": "Cregboy House (Eastbound)"
      }
    },
    {
      "type": "Feature",
      "geometry": {
        "type": "Point",
        "coordinates": [
          -9.151649444,
          53.31589361
        ]
      },
      "properties": {
        "name": "Cloniffe Cross (Eastbound)"
      }
    },
    {
      "type": "Feature",
      "geometry": {
        "type": "Point",
        "coordinates": [
          -9.090236667,
          53.294505
        ]
      },
      "properties": {
        "name": "Bushy Park (Opp Church)"
      }
    },
    {
      "type": "Feature",
      "geometry": {
        "type": "Point",
        "coordinates": [
          -9.032732778,
          53.28270028
        ]
      },
      "properties": {
        "name": "Monivea Rd (VEC)"
      }
    },
    {
      "type": "Feature",
      "geometry": {
        "type": "Point",
        "coordinates": [
          -9.018215278,
          53.28596778
        ]
      },
      "properties": {
        "name": "McDonagh Ave (Old Mervue Shops)"
      }
    },
    {
      "type": "Feature",
      "geometry": {
        "type": "Point",
        "coordinates": [
          -9.034627222,
          53.30168028
        ]
      },
      "properties": {
        "name": "Lime Kiln (Clada Group)"
      }
    },
    {
      "type": "Feature",
      "geometry": {
        "type": "Point",
        "coordinates": [
          -8.931249722,
          53.35681222
        ]
      },
      "properties": {
        "name": "Loughgeorge (Garda Station)"
      }
    },
    {
      "type": "Feature",
      "geometry": {
        "type": "Point",
        "coordinates": [
          -8.986455,
          53.31347889
        ]
      },
      "properties": {
        "name": "Castlegar (Opp McHughs Pub)"
      }
    },
    {
      "type": "Feature",
      "geometry": {
        "type": "Point",
        "coordinates": [
          -8.975138333,
          53.27202278
        ]
      },
      "properties": {
        "name": "Rosshill Cross (Coast Rd)"
      }
    },
    {
      "type": "Feature",
      "geometry": {
        "type": "Point",
        "coordinates": [
          -8.974996389,
          53.27197056
        ]
      },
      "properties": {
        "name": "Rosshill Cross (Westbound)"
      }
    },
    {
      "type": "Feature",
      "geometry": {
        "type": "Point",
        "coordinates": [
          -9.015016944,
          53.29542556
        ]
      },
      "properties": {
        "name": "Castlegar (Church)"
      }
    },
    {
      "type": "Feature",
      "geometry": {
        "type": "Point",
        "coordinates": [
          -9.014666111,
          53.29585
        ]
      },
      "properties": {
        "name": "Castlegar (Crossroad)"
      }
    },
    {
      "type": "Feature",
      "geometry": {
        "type": "Point",
        "coordinates": [
          -8.94295,
          53.34413861
        ]
      },
      "properties": {
        "name": "Claregalway (Cois Chlair Arches Hotel)"
      }
    },
    {
      "type": "Feature",
      "geometry": {
        "type": "Point",
        "coordinates": [
          -9.016325556,
          53.37408417
        ]
      },
      "properties": {
        "name": "Clonboo (Opp Cunniffes)"
      }
    },
    {
      "type": "Feature",
      "geometry": {
        "type": "Point",
        "coordinates": [
          -9.019351944,
          53.34127083
        ]
      },
      "properties": {
        "name": "Curramore Bridge (Southbound)"
      }
    },
    {
      "type": "Feature",
      "geometry": {
        "type": "Point",
        "coordinates": [
          -8.984242222,
          53.29219028
        ]
      },
      "properties": {
        "name": "Donnellans Cross (Eastbound)"
      }
    },
    {
      "type": "Feature",
      "geometry": {
        "type": "Point",
        "coordinates": [
          -9.047396944,
          53.27394972
        ]
      },
      "properties": {
        "name": "Galway (Bus Station)"
      }
    },
    {
      "type": "Feature",
      "geometry": {
        "type": "Point",
        "coordinates": [
          -8.987199722,
          53.29884528
        ]
      },
      "properties": {
        "name": "Parkmore Rd (Parkmore Ind Est)"
      }
    },
    {
      "type": "Feature",
      "geometry": {
        "type": "Point",
        "coordinates": [
          -8.928681944,
          53.27275167
        ]
      },
      "properties": {
        "name": "Oranmore (Oran Town Centre)"
      }
    },
    {
      "type": "Feature",
      "geometry": {
        "type": "Point",
        "coordinates": [
          -8.928641389,
          53.27277361
        ]
      },
      "properties": {
        "name": "Oranmore (Opp Oran Town Centre)"
      }
    },
    {
      "type": "Feature",
      "geometry": {
        "type": "Point",
        "coordinates": [
          -9.022973333,
          53.31363778
        ]
      },
      "properties": {
        "name": "Ballindooley (Stores)"
      }
    },
    {
      "type": "Feature",
      "geometry": {
        "type": "Point",
        "coordinates": [
          -8.986953889,
          53.29908889
        ]
      },
      "properties": {
        "name": "Parkmore Rd (Roundabout)"
      }
    },
    {
      "type": "Feature",
      "geometry": {
        "type": "Point",
        "coordinates": [
          -8.973301389,
          53.28197056
        ]
      },
      "properties": {
        "name": "Dublin Rd (Galway Clinic)"
      }
    },
    {
      "type": "Feature",
      "geometry": {
        "type": "Point",
        "coordinates": [
          -9.046962547,
          53.27361624
        ]
      },
      "properties": {
        "name": "Cannt Station"
      }
    },
    {
      "type": "Feature",
      "geometry": {
        "type": "Point",
        "coordinates": [
          -8.94792,
          53.2751
        ]
      },
      "properties": {
        "name": ""
      }
    }
  ]
}
